{"id":258,"name":"rj 258 Vindobona","line":null,"connexionTimes":[{"id":"788a6015-c8aa-4fe2-8dec-066f31ea2e88","timeArrival":null,"timeDeparture":"2022-11-23T10:26:00+01:00","state":4,"station":{"id":8100173,"name":"Graz Hbf","perex":null,"gpsLat":47.072735,"gpsLng":15.416485,"city":{"id":35,"name":"Graz","gpsLat":47.070256,"gpsLng":15.438572,"showOnDashboard":true,"distance":625373.0915907298,"createdAt":"2016-06-08T14:25:15+00:00","updatedAt":"2020-09-24T07:09:08+00:00","deletedAt":null,"weather":[{"id":"3f2129eb-bd0a-4515-ad2e-cf2fafab562d","date":1669161600,"temperature":7.2,"temperatureNight":null,"icon":"cloudy","hours":[]},{"id":"5b9ba595-61db-461f-8685-3df6b1d82111","date":1669248000,"temperature":10.4,"temperatureNight":null,"icon":"clear-day","hours":[]},{"id":"944db4d7-2fb0-4d47-b5ec-cafecc546994","date":1669334400,"temperature":2.8,"temperatureNight":null,"icon":"partly-cloudy-day","hours":[]}]},"images":[]},"platform":null,"track":null},{"id":"588eacf1-5d12-4490-b35b-dc732e9cde78","timeArrival":"2022-11-23T11:01:00+01:00","timeDeparture":"2022-11-23T11:03:00+01:00","state":4,"station":{"id":8100032,"name":"Bruck/Mur","perex":null,"gpsLat":47.413875,"gpsLng":15.279368,"city":{"id":34,"name":"Bruck an der Mur","body":null,"gpsLat":47.412199,"gpsLng":15.272167,"showOnDashboard":true,"distance":585463.3301081517,"createdAt":"2016-06-08T14:22:41+00:00","updatedAt":"2020-09-24T07:09:08+00:00","deletedAt":null,"weather":[{"id":"f0fee9b0-45a0-4d22-be12-df56b3fd4ed4","date":1669161600,"temperature":5.5,"temperatureNight":null,"icon":"cloudy","hours":[]},{"id":"3987d632-4b1b-400b-b7d7-58f305441b11","date":1669248000,"temperature":7.7,"temperatureNight":null,"icon":"clear-day","hours":[]},{"id":"630bbbb7-5c1a-43ac-a84e-1c107a482259","date":1669334400,"temperature":2.1,"temperatureNight":null,"icon":"cloudy","hours":[]}]},"images":[]},"platform":null,"track":null},{"id":"ebdf5128-b2d9-47da-9e91-24178dc08bb5","timeArrival":"2022-11-23T11:08:00+01:00","timeDeparture":"2022-11-23T11:09:00+01:00","state":4,"station":{"id":8100031,"name":"Kapfenberg","perex":null,"gpsLat":47.445203,"gpsLng":15.292186,"city":{"id":33,"name":"Kapfenberg","body":null,"gpsLat":47.440548,"gpsLng":15.290167,"showOnDashboard":true,"distance":582687.5938573692,"createdAt":"2016-06-08T14:20:12+00:00","updatedAt":"2020-09-24T07:09:08+00:00","deletedAt":null,"weather":[{"id":"8191df16-5c00-4ea6-8f81-7bfb6b3becc6","date":1669161600,"temperature":4.9,"temperatureNight":null,"icon":"cloudy","hours":[]},{"id":"c1876b98-63fd-460c-8ae2-3d5943c42252","date":1669248000,"temperature":7.1,"temperatureNight":null,"icon":"clear-day","hours":[]},{"id":"79afbd53-6d0a-4a15-8b0a-cc105956d677","date":1669334400,"temperature":1.5,"temperatureNight":null,"icon":"cloudy","hours":[]}]},"images":[]},"platform":null,"track":null},{"id":"4e4dd11e-bb47-4a8d-b4d2-14a03ff4b13e","timeArrival":"2022-11-23T11:31:00+01:00","timeDeparture":"2022-11-23T11:33:00+01:00","state":4,"station":{"id":8100029,"name":"M\u00fcrzzuschlag","perex":null,"gpsLat":47.60783,"gpsLng":15.6772,"city":{"id":32,"name":"M\u00fcrzzuschlag","body":null,"gpsLat":47.605354,"gpsLng":15.672381,"showOnDashboard":true,"distance":572054.4796878988,"createdAt":"2016-06-08T14:16:31+00:00","updatedAt":"2020-09-24T07:09:08+00:00","deletedAt":null,"weather":[{"id":"5b372959-cc9a-4be0-a78d-1a26881a72ef","date":1669161600,"temperature":2.9,"temperatureNight":null,"icon":"cloudy","hours":[]},{"id":"0c91f0e4-f3ab-4a60-83b7-b5367ba42232","date":1669248000,"temperature":5.3,"temperatureNight":null,"icon":"cloudy","hours":[]},{"id":"d5349a38-6dfd-42b0-ba4d-776530757332","date":1669334400,"temperature":2.9,"temperatureNight":null,"icon":"cloudy","hours":[]}]},"images":[]},"platform":null,"track":null},{"id":"915822f3-94f7-43a5-bf7a-5ca3e62a27b1","timeArrival":"2022-11-23T11:45:00+01:00","timeDeparture":"2022-11-23T11:47:00+01:00","state":4,"station":{"id":8100028,"name":"Semmering","perex":null,"gpsLat":47.639011,"gpsLng":15.830557,"city":{"id":31,"name":"Semmering","gpsLat":47.646944,"gpsLng":15.83,"showOnDashboard":false,"distance":570958.0141933535,"createdAt":"2016-06-08T13:40:10+00:00","updatedAt":"2020-09-24T07:09:08+00:00","deletedAt":null,"weather":[{"id":"46160844-7a87-499c-9559-bb713822bbf9","date":1669161600,"temperature":2.5,"temperatureNight":null,"icon":"cloudy","hours":[]},{"id":"be5cdace-3a63-4782-ae68-dbf384081e10","date":1669248000,"temperature":5.1,"temperatureNight":null,"icon":"cloudy","hours":[]},{"id":"c3764d80-9547-4ffb-8f42-fc93e2263e77","date":1669334400,"temperature":2.8,"temperatureNight":null,"icon":"cloudy","hours":[]}]},"images":[]},"platform":null,"track":null},{"id":"2aca05b4-4862-483e-848f-4477067f3812","timeArrival":"2022-11-23T12:28:00+01:00","timeDeparture":"2022-11-23T12:32:00+01:00","state":4,"station":{"id":8100516,"name":"Wiener Neustadt Hbf","perex":null,"gpsLat":47.810555,"gpsLng":16.233055,"city":{"id":45,"name":"Wiener Neustadt","body":null,"gpsLat":47.810495,"gpsLng":16.231808,"showOnDashboard":true,"distance":563285.3642335791,"createdAt":"2016-06-09T05:16:14+00:00","updatedAt":"2020-09-24T07:09:08+00:00","deletedAt":null,"weather":[{"id":"99d67146-6f2f-4055-80fa-04b921158954","date":1669161600,"temperature":5.1,"temperatureNight":null,"icon":"cloudy","hours":[]},{"id":"a083e049-464f-4dd0-a0cd-e4b938809d10","date":1669248000,"temperature":9.3,"temperatureNight":null,"icon":"partly-cloudy-day","hours":[]},{"id":"5a7504de-60a0-4db0-ba56-52812062efe8","date":1669334400,"temperature":5.7,"temperatureNight":null,"icon":"partly-cloudy-day","hours":[]}],"images":[]},"platform":null,"track":null}},{"id":"6b5e3b5c-7d3a-44b4-818b-e540bd4f3fa2","timeArrival":"2022-11-23T12:55:00+01:00","timeDeparture":"2022-11-23T12:57:00+01:00","state":4,"station":{"id":8100514,"name":"Wien Meidling","perex":null,"gpsLat":48.17491,"gpsLng":16.335861,"city":{"id":30,"name":"Wien","gpsLat":48.208354,"gpsLng":16.372504,"showOnDashboard":true,"distance":525895.4389930406,"createdAt":"2016-06-08T13:31:32+00:00","updatedAt":"2020-09-24T07:09:08+00:00","deletedAt":null,"weather":[{"id":"e67c6135-3e3a-40c6-ba66-fa40a0515463","date":1669161600,"temperature":5.4,"temperatureNight":null,"icon":"cloudy","hours":[]},{"id":"5921404f-d86f-4cdd-8450-26bfee712636","date":1669248000,"temperature":9.7,"temperatureNight":null,"icon":"partly-cloudy-day","hours":[]},{"id":"e7828db0-587c-4b10-874d-3713bb665bac","date":1669334400,"temperature":5.8,"temperatureNight":null,"icon":"partly-cloudy-day","hours":[]}]},"images":[]},"platform":null,"track":null},{"id":"e8ad41d5-8457-437f-bf29-0cf4df97b4ea","timeArrival":"2022-11-23T13:02:00+01:00","timeDeparture":"2022-11-23T13:10:00+01:00","state":4,"station":{"id":8103000,"name":"Wien Hbf","perex":null,"gpsLat":48.185038,"gpsLng":16.37833,"city":{"id":30,"name":"Wien","gpsLat":48.208354,"gpsLng":16.372504,"showOnDashboard":true,"distance":525895.4389930406,"createdAt":"2016-06-08T13:31:32+00:00","updatedAt":"2020-09-24T07:09:08+00:00","deletedAt":null,"weather":[{"id":"e67c6135-3e3a-40c6-ba66-fa40a0515463","date":1669161600,"temperature":5.4,"temperatureNight":null,"icon":"cloudy","hours":[]},{"id":"5921404f-d86f-4cdd-8450-26bfee712636","date":1669248000,"temperature":9.7,"temperatureNight":null,"icon":"partly-cloudy-day","hours":[]},{"id":"e7828db0-587c-4b10-874d-3713bb665bac","date":1669334400,"temperature":5.8,"temperatureNight":null,"icon":"partly-cloudy-day","hours":[]}]},"images":[]},"platform":null,"track":null},{"id":"420db722-cc7c-4512-a0ae-3bfb033853f4","timeArrival":"2022-11-23T14:04:00+01:00","timeDeparture":"2022-11-23T14:07:00+01:00","state":4,"station":{"id":5433425,"name":"B\u0159eclav","perex":null,"gpsLat":48.753769,"gpsLng":16.893025,"city":{"id":29,"name":"B\u0159eclav","gpsLat":48.758969,"gpsLng":16.88203,"showOnDashboard":true,"distance":487237.66038415517,"createdAt":"2016-06-08T13:23:32+00:00","updatedAt":"2020-09-24T07:09:08+00:00","deletedAt":null,"weather":[{"id":"5f891f8f-9a00-4510-adfe-d2767ce08511","date":1669161600,"temperature":5.1,"temperatureNight":null,"icon":"cloudy","hours":[]},{"id":"9d9d77ef-258b-4637-ad39-f3a80163a2a2","date":1669248000,"temperature":9.5,"temperatureNight":null,"icon":"rain","hours":[]},{"id":"054a8a8b-4e57-479f-83ce-113772411350","date":1669334400,"temperature":3.6,"temperatureNight":null,"icon":"partly-cloudy-day","hours":[]}]},"images":[]},"platform":null,"track":null},{"id":"c5b012b9-e0d3-4643-8611-d3a8accd6a06","timeArrival":"2022-11-23T14:36:00+01:00","timeDeparture":"2022-11-23T14:38:00+01:00","state":4,"station":{"id":5433295,"name":"Brno hl.n.","perex":null,"gpsLat":49.190497,"gpsLng":16.612814,"city":{"id":28,"name":"Brno","gpsLat":49.200221,"gpsLng":16.607841,"showOnDashboard":true,"distance":434654.9072598322,"createdAt":"2016-06-08T13:15:17+00:00","updatedAt":"2020-09-24T07:09:08+00:00","deletedAt":null,"weather":[{"id":"c34c614d-3986-4c67-ac1d-e7cd498e0aaa","date":1669161600,"temperature":5.9,"temperatureNight":null,"icon":"cloudy","hours":[]},{"id":"316a37c9-2ecc-4b49-b3e1-2dd90bdfba3c","date":1669248000,"temperature":8.7,"temperatureNight":null,"icon":"cloudy","hours":[]},{"id":"612b29f6-e6a7-4fb0-b38d-f32e52ac9616","date":1669334400,"temperature":3,"temperatureNight":null,"icon":"cloudy","hours":[]}]},"images":[]},"platform":null,"track":null},{"id":"888d6210-0232-4a19-8eb2-38cb6659f2ee","timeArrival":"2022-11-23T17:32:00+01:00","timeDeparture":"2022-11-23T17:37:00+01:00","state":4,"station":{"id":5457256,"name":"Praha-Hole\u0161ovice","perex":null,"gpsLat":50.110636,"gpsLng":14.439706,"city":{"id":14,"name":"Praha","gpsLat":50.083239,"gpsLng":14.435021,"showOnDashboard":false,"distance":282028.87748036237,"createdAt":"2016-03-03T13:52:35+00:00","updatedAt":"2020-09-24T07:09:08+00:00","deletedAt":
null,"weather":[{"id":"cdcb7430-311f-44f5-b518-3962f737254e","date":1669161600,"temperature":5,"temperatureNight":null,"icon":"cloudy","hours":[]},{"id":"1159e3b2-d5a1-4d29-af2e-45855d7f6603","date":1669248000,"temperature":9.1,"temperatureNight":null,"icon":"rain","hours":[]},{"id":"9d0baf2f-ea1e-48d8-8724-3d1538c617fe","date":1669334400,"temperature":3.1,"temperatureNight":null,"icon":"clear-day","hours":[]}]},"images":[]},"platform":null,"track":null},{"id":"f020bc05-fa93-47cd-b544-89a7dcd79fb7","timeArrival":"2022-11-23T18:43:00+01:00","timeDeparture":"2022-11-23T18:45:00+01:00","state":4,"station":{"id":5453179,"name":"\u00dast\u00ed n.L.hl.n.","perex":null,"gpsLat":50.659444,"gpsLng":14.044464,"city":{"id":116,"name":"\u00dast\u00ed nad Labem","gpsLat":50.657124,"gpsLng":14.038105,"showOnDashboard":false,"distance":213291.68209692423,"createdAt":"2020-05-15T07:55:57+00:00","updatedAt":"2020-09-24T07:09:08+00:00","deletedAt":null,"weather":[{"id":"81306969-0578-4339-9561-8ea9c3d79ae5","date":1669161600,"temperature":2.8,"temperatureNight":null,"icon":"fog","hours":[]},{"id":"716ac5c2-57f0-4334-8718-cc575dfca233","date":1669248000,"temperature":9,"temperatureNight":null,"icon":"cloudy","hours":[]},{"id":"3c9c83bc-f3d9-4c13-a0e0-5d0b7789cb96","date":1669334400,"temperature":1.4,"temperatureNight":null,"icon":"clear-day","hours":[]}]},"images":[]},"platform":null,"track":null},{"id":"da37a575-d69b-4ef8-83e3-d13da4e444b4","timeArrival":"2022-11-23T19:00:00+01:00","timeDeparture":"2022-11-23T19:07:00+01:00","state":4,"station":{"id":5455659,"name":"D\u011b\u010d\u00edn hl.n.","perex":null,"gpsLat":50.773471,"gpsLng":14.201253,"city":{"id":117,"name":"D\u011b\u010d\u00edn","gpsLat":50.769764,"gpsLng":14.199534,"showOnDashboard":false,"distance":203915.0198460117,"createdAt":"2020-05-15T08:44:16+00:00","updatedAt":"2020-09-24T07:09:08+00:00","deletedAt":null,"weather":[{"id":"12fd470c-5ab8-4996-a34f-25ff83c2079c","date":1669161600,"temperature":3.4,"temperatureNight":null,"icon":"fog","hours":[]},{"id":"2a7f5cc1-665f-4260-a2a7-d0ed62f9c5a2","date":1669248000,"temperature":9.5,"temperatureNight":null,"icon":"cloudy","hours":[]},{"id":"092b6d0b-da5e-4183-a858-d3a8eef2ae03","date":1669334400,"temperature":1.6,"temperatureNight":null,"icon":"partly-cloudy-day","hours":[]}]},"images":[]},"platform":null,"track":null},{"id":"0bf58757-2f9e-4a69-bb65-d282fd7b3800","timeArrival":"2022-11-23T19:23:00+01:00","timeDeparture":"2022-11-23T19:25:00+01:00","state":4,"station":{"id":8010022,"name":"Bad Schandau","perex":null,"gpsLat":50.918736,"gpsLng":14.139717,"city":{"id":118,"name":"Bad Schandau","body":null,"gpsLat":50.920177,"gpsLng":14.138128,"showOnDashboard":false,"distance":186631.19049302998,"createdAt":"2020-05-15T08:58:24+00:00","updatedAt":"2020-09-24T07:09:08+00:00","deletedAt":null,"weather":[{"id":"3b869344-22da-4d22-b558-c2b3c34956ff","date":1669161600,"temperature":3.3,"temperatureNight":null,"icon":"fog","hours":[]},{"id":"efbd451e-ab8f-4185-b262-9c1dd8ca4488","date":1669248000,"temperature":8.5,"temperatureNight":null,"icon":"cloudy","hours":[]},{"id":"0983b1c7-8604-45d3-a51f-bbd94ef7c4a9","date":1669334400,"temperature":1.4,"temperatureNight":null,"icon":"clear-day","hours":[]}]},"images":[]},"platform":null,"track":null},{"id":"863796aa-5ef6-4064-acf2-9541d4634935","timeArrival":"2022-11-23T19:50:00+01:00","timeDeparture":"2022-11-23T19:55:00+01:00","state":4,"station":{"id":8010085,"name":"Dresden Hbf","perex":null,"gpsLat":51.04041,"gpsLng":13.731584,"city":{"id":119,"name":"Dresden","gpsLat":51.05451,"gpsLng":13.707945,"showOnDashboard":false,"distance":165620.10995191504,"createdAt":"2020-05-15T09:17:41+00:00","updatedAt":"2020-09-24T07:09:08+00:00","deletedAt":null,"weather":[{"id":"99538f91-418f-4529-bf3e-1dbdd550feb6","date":1669161600,"temperature":6.4,"temperatureNight":null,"icon":"partly-cloudy-day","hours":[]},{"id":"5d1032b2-c46b-48ce-8dde-f080f965a7ff","date":1669248000,"temperature":8.9,"temperatureNight":null,"icon":"rain","hours":[]},{"id":"5464a0c9-235d-4fdf-a741-5304de31da0e","date":1669334400,"temperature":3.3,
"temperatureNight":null,"icon":"partly-cloudy-day","hours":[]}]},"images":[]},"platform":null,"track":null},{"id":"a97a8622-7f32-4ece-ac05-95112410c826","timeArrival":"2022-11-23T20:00:00+01:00","timeDeparture":"2022-11-23T20:02:00+01:00","state":4,"station":{"id":8010089,"name":"Dresden-Neustadt","perex":null,"gpsLat":51.065897,"gpsLng":13.740603,"city":{"id":119,"name":"Dresden","gpsLat":51.05451,"gpsLng":13.707945,"showOnDashboard":false,"distance":165620.10995191504,"createdAt":"2020-05-15T09:17:41+00:00","updatedAt":"2020-09-24T07:09:08+00:00","deletedAt":null,"weather":[{"id":"99538f91-418f-4529-bf3e-1dbdd550feb6","date":1669161600,"temperature":6.4,"temperatureNight":null,"icon":"partly-cloudy-day","hours":[]},{"id":"5d1032b2-c46b-48ce-8dde-f080f965a7ff","date":1669248000,"temperature":8.9,"temperatureNight":null,"icon":"rain","hours":[]},{"id":"5464a0c9-235d-4fdf-a741-5304de31da0e","date":1669334400,"temperature":3.3,"temperatureNight":null,"icon":"partly-cloudy-day","hours":[]}]},"images":[]},"platform":null,"track":null},{"id":"2b4b2952-2752-495f-a972-a05d7d5f2c01","timeArrival":"2022-11-23T20:27:00+01:00","timeDeparture":"2022-11-23T20:29:00+01:00","state":4,"station":{"id":8010099,"name":"Elsterwerda","perex":null,"gpsLat":51.459223,"gpsLng":13.516201,"city":{"id":120,"name":"Elsterwerda","body":null,"gpsLat":51.457687,"gpsLng":13.518453,"showOnDashboard":false,"distance":119519.78194996084,"createdAt":"2020-05-15T09:22:56+00:00","updatedAt":"2020-09-24T07:09:08+00:00","deletedAt":null,"weather":[{"id":"8f61b6ab-5572-4ddc-8b96-bd1d3113ad55","date":1669161600,"temperature":6.9,"temperatureNight":null,"icon":"clear-day","hours":[]},{"id":"c96e486a-5a11-47b7-897d-42a05b06e5aa","date":1669248000,"temperature":8.7,"temperatureNight":null,"icon":"cloudy","hours":[]},{"id":"b4294914-5261-4c1c-bb05-b02e27d5716c","date":1669334400,"temperature":3.5,"temperatureNight":null,"icon":"cloudy","hours":[]}]},"images":[]},"platform":null,"track":null},{"id":"da46807e-107b-4f98-95b5-430e8f4e43ab","timeArrival":"2022-11-23T20:39:00+01:00","timeDeparture":"2022-11-23T20:41:00+01:00","state":4,"station":{"id":8010079,"name":"Doberlug-Kirchhain","perex":null,"gpsLat":51.620613,"gpsLng":13.564226,"city":{"id":121,"name":"Doberlug-Kirchhain","body":null,"gpsLat":51.620013,"gpsLng":13.563684,"showOnDashboard":false,"distance":101889.42104392612,"createdAt":"2020-05-15T09:41:15+00:00","updatedAt":"2020-09-24T07:09:08+00:00","deletedAt":null,"image":null,"weather":[{"id":"f45326f0-4234-4e9c-8e32-8a05eb7deb4d","date":1669161600,"temperature":6.7,"temperatureNight":null,"icon":"clear-day","hours":[]},{"id":"3fb41566-ba18-471f-a909-ec0e42679e12","date":1669248000,"temperature":8.3,"temperatureNight":null,"icon":"cloudy","hours":[]},{"id":"b5902b9a-edd5-44e9-9dac-dcfee56ddffd","date":1669334400,"temperature":4.2,"temperatureNight":null,"icon":"cloudy","hours":[]}],"images":[]},"images":[]},"platform":null,"track":null},{"id":"7a47ab69-2d8d-413e-968e-5ebc90723a42","timeArrival":"2022-11-23T21:48:00+01:00","timeDeparture":"2022-11-23T21:50:00+01:00","state":4,"station":{"id":8011162,"name":"Berlin Ostkreuz","perex":null,"gpsLat":52.503,"gpsLng":13.469261,"city":{"id":122,"name":"Berlin","gpsLat":52.511805,"gpsLng":13.376081,"showOnDashboard":false,"distance":1824.2082777007718,"createdAt":"2020-05-15T09:56:55+00:00","updatedAt":"2020-09-24T07:09:08+00:00","deletedAt":null,"weather":[{"id":"8ff2345b-46dc-479c-93bc-ef0d1caf2081","date":1669161600,"temperature":5.9,"temperatureNight":null,"icon":"clear-day","hours":[]},{"id":"289a3c4e-2af7-40f6-a253-758865ecd8c7","date":1669248000,"temperature":7.8,"temperatureNight":null,"icon":"cloudy","hours":[]},{"id":"b5552441-bbc8-4c37-969e-7896b2e576bb","date":1669334400,"temperature":2.8,"temperatureNight":null,"icon":"partly-cloudy-day","hours":[]}]},"images":[]},"platform":null,"track":null},{"id":"acfb5ee0-416a-4be7-a256-8663e2d27ce5","timeArrival":"2022-11-23T21:59:00+01:00","timeDeparture":"2022-11-23T22:03:00+01:00","state":4,"station":{"id":8011160,"name":"Berlin Hbf","perex":null,"gpsLat":52.525592,"gpsLng":13.369545,"city":{"id":122,"name":"Berlin","gpsLat":52.511805,"gpsLng":13.376081,"showOnDashboard":false,"distance":1824.2082777007718,"createdAt":"2020-05-15T09:56:55+00:00","updatedAt":"2020-09-24T07:09:08+00:00","deletedAt":null,"weather":[{"id":"8ff2345b-46dc-479c-93bc-ef0d1caf2081","date":1669161600,"temperature":5.9,"temperatureNight":null,"icon":"clear-day","hours":[]},{"id":"289a3c4e-2af7-40f6-a253-758865ecd8c7","date":1669248000,"temperature":7.8,"temperatureNight":null,"icon":"cloudy","hours":[]},{"id":"b5552441-bbc8-4c37-969e-7896b2e576bb","date":1669334400,"temperature":2.8,"temperatureNight":null,"icon":"partly-cloudy-day","hours":[]}]},"images":[]},"platform":null,"track":null},{"id":"41aeed07-b8d5-428e-a554-1e8258f803fc","timeArrival":"2022-11-23T22:10:00+01:00","timeDeparture":null,"state":0,"station":{"id":8010403,"name":"Berlin-Charlottenburg","perex":null,"gpsLat":52.504875,"gpsLng":13.303756,"city":{"id":122,"name":"Berlin","gpsLat":52.511805,"gpsLng":13.376081,"showOnDashboard":false,"distance":1824.2082777007718,"createdAt":"2020-05-15T09:56:55+00:00","updatedAt":"2020-09-24T07:09:08+00:00","deletedAt":null,"weather":[{"id":"8ff2345b-46dc-479c-93bc-ef0d1caf2081","date":1669161600,"temperature":5.9,"temperatureNight":null,"icon":"clear-day","hours":[]},{"id":"289a3c4e-2af7-40f6-a253-758865ecd8c7","date":1669248000,"temperature":7.8,"temperatureNight":null,"icon":"cloudy","hours":[]},{"id":"b5552441-bbc8-4c37-969e-7896b2e576bb","date":1669334400,"temperature":2.8,"temperatureNight":null,"icon":"partly-cloudy-day","hours":[]}]},"images":[]},"platform":null,"track":null}]}
