[
    {
        "country": "DE",
        "floorLevel": 0,
        "identifier": {
            "motis": "ch-opentransportdataswiss_Parent8023179"
        },
        "latitude": 51.345474,
        "longitude": 12.382064,
        "name": "Leipzig Hbf",
        "postalCode": "04109",
        "region": "DE-SN",
        "streetAddress": " ",
        "type": "Stop"
    },
    {
        "country": "DE",
        "floorLevel": 0,
        "identifier": {
            "motis": "ch-opentransportdataswiss_Parent8023179"
        },
        "latitude": 51.345474,
        "longitude": 12.382064,
        "name": "Leipzig Hbf",
        "postalCode": "04109",
        "region": "DE-SN",
        "streetAddress": " ",
        "type": "Stop"
    },
    {
        "country": "DE",
        "floorLevel": 0,
        "identifier": {
            "motis": "node/3575061420"
        },
        "latitude": 51.3450271,
        "longitude": 12.3817197,
        "name": "Deutsche Bahn",
        "postalCode": "04109",
        "region": "DE-SN",
        "streetAddress": " "
    },
    {
        "country": "DE",
        "floorLevel": 0,
        "identifier": {
            "motis": "node/3575061421"
        },
        "latitude": 51.3450365,
        "longitude": 12.3816896,
        "name": "Deutsche Bahn",
        "postalCode": "04109",
        "region": "DE-SN",
        "streetAddress": " "
    },
    {
        "country": "DE",
        "floorLevel": 0,
        "identifier": {
            "motis": "node/2202309900"
        },
        "latitude": 51.3448745,
        "longitude": 12.3819165,
        "name": "Deutsche Bahn",
        "postalCode": "04109",
        "region": "DE-SN",
        "streetAddress": " "
    },
    {
        "country": "DE",
        "floorLevel": 0,
        "identifier": {
            "motis": "node/6510099866"
        },
        "latitude": 51.3449263,
        "longitude": 12.3815594,
        "name": "Thüringer Grill",
        "postalCode": "04109",
        "region": "DE-SN",
        "streetAddress": " "
    },
    {
        "country": "DE",
        "floorLevel": 0,
        "identifier": {
            "motis": "node/2140362880"
        },
        "latitude": 51.3452195,
        "longitude": 12.3811144,
        "name": "Deutsche Bahn",
        "postalCode": "04109",
        "region": "DE-SN",
        "streetAddress": " "
    },
    {
        "country": "DE",
        "floorLevel": 0,
        "identifier": {
            "motis": "node/6510099867"
        },
        "latitude": 51.3450387,
        "longitude": 12.3812945,
        "name": "Crepes-Express",
        "postalCode": "04109",
        "region": "DE-SN",
        "streetAddress": " "
    },
    {
        "country": "DE",
        "floorLevel": 0,
        "identifier": {
            "motis": "node/2140362881"
        },
        "latitude": 51.3452333,
        "longitude": 12.3810763,
        "name": "Deutsche Bahn",
        "postalCode": "04109",
        "region": "DE-SN",
        "streetAddress": " "
    },
    {
        "country": "DE",
        "floorLevel": 0,
        "identifier": {
            "motis": "node/6510099869"
        },
        "latitude": 51.344935,
        "longitude": 12.3814312,
        "name": "Bäcker Lukas",
        "postalCode": "04109",
        "region": "DE-SN",
        "streetAddress": " "
    }
]
