[
    {
        "country": "DE",
        "identifier": {
            "ifopt": "de:05315:11201"
        },
        "latitude": 50.94297,
        "locality": "",
        "longitude": 6.95858,
        "name": "Köln Hbf",
        "region": "DE-NW",
        "type": "Stop"
    },
    {
        "country": "DE",
        "equipment": {
            "disruptionEffect": "NormalService",
            "type": "Elevator"
        },
        "identifier": {
            "ifopt": "de:05315:11201:elevator:3106"
        },
        "latitude": 50.94307,
        "longitude": 6.9578,
        "name": "zu Gleis 1",
        "region": "DE-NW",
        "type": "Equipment"
    },
    {
        "country": "DE",
        "equipment": {
            "disruptionEffect": "NoService",
            "type": "Elevator"
        },
        "identifier": {
            "ifopt": "de:05315:11201:elevator:3053"
        },
        "latitude": 50.94324,
        "longitude": 6.95808,
        "name": "zu Gleis 2/3",
        "region": "DE-NW",
        "type": "Equipment"
    },
    {
        "country": "DE",
        "equipment": {
            "disruptionEffect": "NormalService",
            "type": "Elevator"
        },
        "identifier": {
            "ifopt": "de:05315:11201:elevator:3094"
        },
        "latitude": 50.94362,
        "longitude": 6.959,
        "name": "zu Gleis 10/11 Abschnitt D/E",
        "region": "DE-NW",
        "type": "Equipment"
    },
    {
        "country": "DE",
        "equipment": {
            "disruptionEffect": "NoService",
            "type": "Escalator"
        },
        "identifier": {
            "ifopt": "de:05315:11201:escalator:1973"
        },
        "latitude": 50.94262,
        "longitude": 6.95837,
        "name": "zu Gleis 1",
        "region": "DE-NW",
        "type": "Equipment"
    },
    {
        "country": "DE",
        "equipment": {
            "disruptionEffect": "NormalService",
            "type": "Escalator"
        },
        "identifier": {
            "ifopt": "de:05315:11201:escalator:2239"
        },
        "latitude": 50.94371,
        "longitude": 6.95889,
        "name": "zu Gleis 10/11(S-Bahn) abwärts",
        "region": "DE-NW",
        "type": "Equipment"
    },
    {
        "country": "DE",
        "identifier": {
            "vrs": "v:kvb-rad:21596"
        },
        "latitude": 50.939819,
        "longitude": 6.957879,
        "name": "KVB-Rad 21596",
        "region": "DE-NW",
        "rentalVehicle": {
            "type": "Unknown"
        },
        "type": "RentedVehicle"
    },
    {
        "country": "DE",
        "identifier": {
            "vrs": "v:kvb-rad:210004"
        },
        "latitude": 50.939115,
        "longitude": 6.95824,
        "name": "KVB-Rad 210004",
        "region": "DE-NW",
        "rentalVehicle": {
            "type": "Unknown"
        },
        "type": "RentedVehicle"
    }
]
